[{ "lat": "29.986615", "lng": "31.837933", "title": "\u0627\u0644\u0634\u064a\u0645\u064a \u0641\u0631\u0639 \u0627\u0644\u0645\u0639\u0627\u062f\u064a", "Governorat": "1", "street": "\u0634\u0627\u0631\u0639 1004 \u0645\u062a\u0641\u0631\u0639 \u0645\u0646 306 - \u0627\u0644\u0645\u0639\u0627\u062f\u064a", "city": "", "zip": "01000778356", "proimage": "public\/src\/style\/metro\/images\/photos\/Lubricants--(11).jpg", "markericon": "public\/src\/style\/metro\/images\/eni-marker.png" }, { "lat": "30.086318", "lng": "31.288428", "title": "\u0645\u0631\u0643\u0632 \u0627\u0644\u0634\u064a\u0645\u064a \u062d\u062f\u0627\u0626\u0642 \u0627\u0644\u0642\u0628\u0629", "Governorat": "1", "street": "\u0627\u0644\u0648\u0627\u064a\u0644\u064a \u0627\u0644\u0643\u0628\u064a\u0631 \u0634\u0631\u0642 - \u062d\u062f\u0627\u0626\u0642 \u0627\u0644\u0642\u0628\u0629", "city": "", "zip": "01000160828", "proimage": "public\/src\/style\/metro\/images\/photos\/Lubricants--(8).jpg", "markericon": "public\/src\/style\/metro\/images\/eni-marker.png" }, { "lat": "30.008963", "lng": "31.338342", "title": "\u0634\u0631\u0643\u0629 \u0627\u0644\u0634\u064a\u0645\u064a \u0641\u0631\u0639 \u0627\u0644\u0645\u0642\u0637\u0645", "Governorat": "1", "street": "\u0645\u062a\u0641\u0631\u0639 \u0645\u0646 \u0634\u0627\u0631\u0639 9 \u0627\u0644\u0645\u0642\u0637\u0645", "city": "", "zip": "01000778356", "proimage": "public\/src\/style\/metro\/images\/photos\/Lubricants--(5).jpg", "markericon": "public\/src\/style\/metro\/images\/eni-marker.png" }, { "lat": "30.047728", "lng": "31.374685", "title": "\u0634\u0631\u0643\u0629 \u0627\u0644\u0634\u064a\u0645\u064a \u0641\u0631\u0639 \u0645\u062f\u064a\u0646\u0629 \u0646\u0635\u0631", "Governorat": "1", "street": "\u0645\u062d\u0637\u0629 \u0627\u0644\u0645\u062f\u0631\u0633\u0629 - \u0627\u0644\u062d\u064a \u0627\u0644\u0639\u0627\u0634\u0631 - \u0645\u062f\u064a\u0646\u0629 \u0646\u0635\u0631", "city": "", "zip": "01000778341", "proimage": "public\/src\/style\/metro\/images\/photos\/Lubricants--(4).jpg", "markericon": "public\/src\/style\/metro\/images\/eni-marker.png" }, { "lat": "30.008598", "lng": "31.303958", "title": "\u062c\u0648\u0644\u062f\u0646 \u0648\u0627\u064a", "Governorat": "1", "street": "\u0637\u0631\u064a\u0642 \u0647\u062f\u0649 \u0634\u0639\u0631\u0627\u0648\u064a - \u0628\u062c\u0648\u0627\u0631 \u0645\u0633\u062c\u062f \u0627\u0644\u0635\u0641\u0627 - \u0627\u0644\u0645\u0642\u0637\u0645", "city": "", "zip": "01229206229", "proimage": "public\/src\/style\/metro\/images\/photos\/Lubricants--(2).jpg", "markericon": "public\/src\/style\/metro\/images\/eni-marker.png" }, { "lat": "30.100858", "lng": "31.264764", "title": "\u0627\u0644\u0635\u064a\u0627\u062f", "Governorat": "1", "street": "\u0627\u0644\u0632\u0627\u0648\u064a\u0629 \u0627\u0644\u062d\u0645\u0631\u0627\u0621", "city": "", "zip": "01017660096", "proimage": "public\/src\/style\/metro\/images\/photos\/Lubricants--(1).jpg", "markericon": "public\/src\/style\/metro\/images\/eni-marker.png" }, { "lat": "30.174994", "lng": "31.060592", "title": "\u062a\u0631\u064a \u062c\u0627\u0633", "Governorat": "11", "street": "\u0646\u0643\u0644\u0627 - \u0627\u0644\u062c\u064a\u0632\u0629", "city": "", "zip": "01001714373", "proimage": "public\/src\/style\/metro\/images\/photos\/IMG_8154.jpg", "markericon": "public\/src\/style\/metro\/images\/eni-marker.png" }]