[{ "lat": "30.175222", "lng": "31.42676", "title": "Al Salam station", "Governorat": "1", "street": "Al Salam City - Egypt \/ Belbeis desert road, 3 km before the toll station", "city": "Cairo", "zip": "01066677200", "proimage": "src\/style\/metro\/images\/photos\/Filter.jpg", "markericon": "src\/style\/metro\/images\/marker.png" }, { "lat": "30.105234", "lng": "31.276125", "title": "Al-Mustaamrah Station", "Governorat": "1", "street": "Al-Mustaamrah Street, off Port Said Street, CTA Garage", "city": "Cairo", "zip": "01066677200", "proimage": "src\/style\/metro\/images\/photos\/IMG_1233.jpg", "markericon": "src\/style\/metro\/images\/marker.png" }, { "lat": "31.176245", "lng": "29.877649", "title": "Mansoura Station 3", "Governorat": "7", "street": "below Abdel Salam Aref Bridge (between Mobil and Esso stations)", "city": "Dakahlia \t \t \t \t", "zip": "01066677200", "proimage": "src\/style\/metro\/images\/photos\/IMG_1235.jpg", "markericon": "src\/style\/metro\/images\/marker.png" }, { "lat": "30.604502", "lng": "32.279705", "title": "El-Kabbary Station", "Governorat": "1", "street": "Misr Petroleum Station - 86 El-Max Street (Al-Tarhouni) El-Kabbary", "city": "Alexandria", "zip": "01066677200", "proimage": "src\/style\/metro\/images\/photos\/IMG_1236.jpg", "markericon": "src\/style\/metro\/images\/marker.png" }, { "lat": "31.256628", "lng": "32.276066", "title": "Ismailia Station", "Governorat": "13", "street": "Garden City District - Plot No. (4) - next to the new governorate headquarters", "city": "Ismailia ", "zip": "01066677200", "proimage": "src\/style\/metro\/images\/photos\/IMG_1240.jpg", "markericon": "src\/style\/metro\/images\/marker.png" }, { "lat": "31.237478", "lng": "32.29055", "title": "Al-Tameer Station", "Governorat": "19", "street": "GASTEC Station - Al-Tameer Street - in front of the Covered Hall", "city": "Port Said", "zip": "01066677200", "proimage": "src\/style\/metro\/images\/photos\/IMG_1256.jpg", "markericon": "src\/style\/metro\/images\/marker.png" }]